<?xml version="1.0"?>
<ArrayOfCustomer xmlns:xsi="http://www.w3.org/2001/XMLSchema-instance" xmlns:xsd="http://www.w3.org/2001/XMLSchema">
  <Customer>
    <Id>123456789</Id>
    <Name>Reuvan Cohen</Name>
    <Phone>0583952489</Phone>
    <Longitude>35.17102699703434</Longitude>
    <Latitude>31.78913413396946</Latitude>
    <Password>aaaa</Password>
    <Answer>bbbb</Answer>
    <Active>true</Active>
  </Customer>
  <Customer>
    <Id>324968520</Id>
    <Name>Shimon Levy</Name>
    <Phone>0583522962</Phone>
    <Longitude>35.18862021237819</Longitude>
    <Latitude>31.786015836732847</Latitude>
    <Password>cccc</Password>
    <Answer>dddd</Answer>
    <Active>true</Active>
  </Customer>
  <Customer>
    <Id>323658962</Id>
    <Name>Tirtza Bitton</Name>
    <Phone>0503567495</Phone>
    <Longitude>35.21472236819816</Longitude>
    <Latitude>31.78619053512268</Latitude>
    <Password>eeee</Password>
    <Answer>ffff</Answer>
    <Active>true</Active>
  </Customer>
  <Customer>
    <Id>312696584</Id>
    <Name>Isachar Friedman</Name>
    <Phone>0559632587</Phone>
    <Longitude>35.18716715470557</Longitude>
    <Latitude>31.76275454575024</Latitude>
    <Password>gggg</Password>
    <Answer>hhhh</Answer>
    <Active>true</Active>
  </Customer>
  <Customer>
    <Id>213695826</Id>
    <Name>David Peretz</Name>
    <Phone>0532459852</Phone>
    <Longitude>35.18259758354167</Longitude>
    <Latitude>31.76335370891613</Latitude>
    <Password>iiii</Password>
    <Answer>jjjj</Answer>
    <Active>true</Active>
  </Customer>
  <Customer>
    <Id>326987415</Id>
    <Name>Avraham Segal</Name>
    <Phone>0527453969</Phone>
    <Longitude>35.17261664121437</Longitude>
    <Latitude>31.789408369550717</Latitude>
    <Password>kkkk</Password>
    <Answer>llll</Answer>
    <Active>true</Active>
  </Customer>
  <Customer>
    <Id>213698521</Id>
    <Name>Yaakov Kats</Name>
    <Phone>0548521365</Phone>
    <Longitude>35.18189506819828</Longitude>
    <Latitude>31.787829416071816</Latitude>
    <Password>mmmm</Password>
    <Answer>nnnn</Answer>
    <Active>true</Active>
  </Customer>
  <Customer>
    <Id>236985426</Id>
    <Name>Leah Chadad</Name>
    <Phone>0509850256</Phone>
    <Longitude>35.21786601052626</Longitude>
    <Latitude>31.78437499940112</Latitude>
    <Password>oooo</Password>
    <Answer>pppp</Answer>
    <Active>true</Active>
  </Customer>
  <Customer>
    <Id>206985147</Id>
    <Name>Sara Silver</Name>
    <Phone>0509879955</Phone>
    <Longitude>35.19441221052715</Longitude>
    <Latitude>31.817709663575744</Latitude>
    <Password>qqqq</Password>
    <Answer>rrrr</Answer>
    <Active>true</Active>
  </Customer>
  <Customer>
    <Id>456932814</Id>
    <Name>Rivka Ochayoun</Name>
    <Phone>0582564258</Phone>
    <Longitude>35.18372692586983</Longitude>
    <Latitude>31.770637478956328</Latitude>
    <Password>ssss</Password>
    <Answer>tttt</Answer>
    <Active>true</Active>
  </Customer>
  <Customer>
    <Id>213088636</Id>
    <Name>Chaya Phillips</Name>
    <Phone>0586713868</Phone>
    <Longitude>35.13085</Longitude>
    <Latitude>31.716050000000003</Latitude>
    <Password>aaaaa</Password>
    <Answer>Shulman</Answer>
    <Active>true</Active>
  </Customer>
  <Customer>
    <Id>123165498</Id>
    <Name>shira</Name>
    <Phone>0584400322</Phone>
    <Longitude>35.1548</Longitude>
    <Latitude>31.745700000000003</Latitude>
    <Password>1234</Password>
    <Answer>ht</Answer>
    <Active>true</Active>
  </Customer>
  <Customer>
    <Id>212376776</Id>
    <Name>shira</Name>
    <Phone>0584400322</Phone>
    <Longitude>35.15365</Longitude>
    <Latitude>31.751450000000002</Latitude>
    <Password>12345</Password>
    <Answer>benh</Answer>
    <Active>true</Active>
  </Customer>
</ArrayOfCustomer>